[{"_id": "657b099b3511037645e52742", "id": 110967, "name": "Abbeville", "state_id": 1443, "state_code": "SC", "country_id": 233, "country_code": "US", "latitude": 34.17817, "longitude": -82.37901, "temp_column": 1}, {"_id": "657b099b3511037645e4f7ac", "id": 110965, "name": "Abbeville", "state_id": 1455, "state_code": "GA", "country_id": 233, "country_code": "US", "latitude": 31.99212, "longitude": -83.30682, "temp_column": 1}, {"_id": "657b099b3511037645e52743", "id": 110969, "name": "Abbeville County", "state_id": 1443, "state_code": "SC", "country_id": 233, "country_code": "US", "latitude": 34.22257, "longitude": -82.45871, "temp_column": 1}, {"_id": "657b099b3511037645e5067b", "id": 110973, "name": "Aberdeen", "state_id": 1401, "state_code": "MD", "country_id": 233, "country_code": "US", "latitude": 39.50956, "longitude": -76.16412, "temp_column": 1}, {"_id": "657b099b3511037645e5067c", "id": 110980, "name": "Aberdeen Proving Ground", "state_id": 1401, "state_code": "MD", "country_id": 233, "country_code": "US", "latitude": 39.46686, "longitude": -76.13066, "temp_column": 1}, {"_id": "657b099b3511037645e5067d", "id": 110993, "name": "Accokeek", "state_id": 1401, "state_code": "MD", "country_id": 233, "country_code": "US", "latitude": 38.66762, "longitude": -77.02831, "temp_column": 1}, {"_id": "657b099b3511037645e4f7ad", "id": 111004, "name": "Acworth", "state_id": 1455, "state_code": "GA", "country_id": 233, "country_code": "US", "latitude": 34.06635, "longitude": -84.67837, "temp_column": 1}, {"_id": "657b099b3511037645e4f7ae", "id": 111012, "name": "Adairsville", "state_id": 1455, "state_code": "GA", "country_id": 233, "country_code": "US", "latitude": 34.3687, "longitude": -84.93411, "temp_column": 1}, {"_id": "657b099b3511037645e5067e", "id": 111029, "name": "Adamstown", "state_id": 1401, "state_code": "MD", "country_id": 233, "country_code": "US", "latitude": 39.31094, "longitude": -77.47471, "temp_column": 1}, {"_id": "657b099b3511037645e4f7af", "id": 111041, "name": "Adel", "state_id": 1455, "state_code": "GA", "country_id": 233, "country_code": "US", "latitude": 31.13727, "longitude": -83.42408, "temp_column": 1}]